[
  { "name": "BTM Layout", "lat": 12.9166, "lon": 77.6101, "is_metro_station": false },
  { "name": "Silk Board", "lat": 12.9173, "lon": 77.6235 },
  { "name": "Madiwala", "lat": 12.9229, "lon": 77.6170 },
  { "name": "Koramangala", "lat": 12.9352, "lon": 77.6245, "is_bus_hub": true },
  { "name": "HSR Layout", "lat": 12.9121, "lon": 77.6446 },
  { "name": "Marathahalli", "lat": 12.9569, "lon": 77.7011 },
  { "name": "Bellandur", "lat": 12.9304, "lon": 77.6784 },
  { "name": "Electronic City", "lat": 12.8390, "lon": 77.6770 },
  { "name": "MG Road", "lat": 12.9756, "lon": 77.6050, "is_metro_station": true },
  { "name": "Indiranagar", "lat": 12.9784, "lon": 77.6408, "is_metro_station": true },
  { "name": "Whitefield", "lat": 12.9698, "lon": 77.7499, "is_bus_hub": true },
  { "name": "KR Puram", "lat": 13.0067, "lon": 77.6930, "is_metro_station": true },
  { "name": "Majestic", "lat": 12.9779, "lon": 77.5713, "is_metro_station": true, "is_bus_hub": true },
  { "name": "Yeshwanthpur", "lat": 13.0185, "lon": 77.5560, "is_metro_station": true, "is_bus_hub": true },
  { "name": "Hebbal", "lat": 13.0352, "lon": 77.5970, "is_bus_hub": true },
  { "name": "Jayanagar", "lat": 12.9250, "lon": 77.5938, "is_metro_station": true, "is_bus_hub": true },
  { "name": "JP Nagar", "lat": 12.9057, "lon": 77.5853 },
  { "name": "Banashankari", "lat": 12.9182, "lon": 77.5733, "is_metro_station": true, "is_bus_hub": true },
  { "name": "Kengeri", "lat": 12.9177, "lon": 77.4840, "is_bus_hub": true },
  { "name": "Rajajinagar", "lat": 12.9918, "lon": 77.5530, "is_metro_station": true },
  { "name": "Kempegowda International Airport (BLR)", "lat": 13.1986, "lon": 77.7066, "is_bus_hub": true },
  { "name": "RV College of Engineering", "lat": 12.9237, "lon": 77.4987 },

  {
    "name": "Shanthinagar TTMC",
    "lat": 12.9543,
    "lon": 77.5924,
    "is_bus_hub": true,
    "contact": "7760991061",
    "amenities": [
      "Bus bays",
      "Platforms",
      "Seating & lighting",
      "Public conveniences",
      "Information systems",
      "Safety and security",
      "Bengaluru One centers",
      "Other citizen amenity centers",
      "ATMs",
      "Daily needs shopping",
      "Park and Ride facilities"
    ]
  },
  {
    "name": "Jayanagar TTMC",
    "lat": 12.9284,
    "lon": 77.5846,
    "is_bus_hub": true,
    "is_metro_station": true,
    "contact": "7760991062",
    "amenities": [
      "Bus bays",
      "Platforms",
      "Seating & lighting",
      "Public conveniences",
      "Information systems",
      "Safety and security",
      "Bengaluru One centers",
      "Other citizen amenity centers",
      "ATMs",
      "Daily needs shopping",
      "Park and Ride facilities"
    ]
  },
  {
    "name": "Kengeri TTMC",
    "lat": 12.9139,
    "lon": 77.4863,
    "is_bus_hub": true,
    "is_metro_station": true,
    "contact": "7760991016",
    "amenities": [
      "Bus bays",
      "Platforms",
      "Seating & lighting",
      "Public conveniences",
      "Information systems",
      "Safety and security",
      "Bengaluru One centers",
      "Other citizen amenity centers",
      "ATMs",
      "Daily needs shopping",
      "Park and Ride facilities"
    ]
  },
  {
    "name": "Banashankari TTMC",
    "lat": 12.9156,
    "lon": 77.5736,
    "is_bus_hub": true,
    "is_metro_station": true,
    "contact": "7760991340",
    "amenities": [
      "Bus bays",
      "Platforms",
      "Seating & lighting",
      "Public conveniences",
      "Information systems",
      "Safety and security",
      "Bengaluru One centers",
      "Other citizen amenity centers",
      "ATMs",
      "Daily needs shopping",
      "Park and Ride facilities"
    ]
  },
  {
    "name": "Koramangala TTMC",
    "lat": 12.9408,
    "lon": 77.6250,
    "is_bus_hub": true,
    "contact": "7760991342",
    "amenities": [
      "Bus bays",
      "Platforms",
      "Seating & lighting",
      "Public conveniences",
      "Information systems",
      "Safety and security",
      "Bengaluru One centers",
      "Other citizen amenity centers",
      "ATMs",
      "Daily needs shopping",
      "Park and Ride facilities"
    ]
  },
  {
    "name": "Yeshwanthpur TTMC",
    "lat": 13.0232,
    "lon": 77.5499,
    "is_bus_hub": true,
    "is_metro_station": true,
    "contact": "7760991477",
    "amenities": [
      "Bus bays",
      "Platforms",
      "Seating & lighting",
      "Public conveniences",
      "Information systems",
      "Safety and security",
      "Bengaluru One centers",
      "Other citizen amenity centers",
      "ATMs",
      "Daily needs shopping",
      "Park and Ride facilities"
    ]
  },
  {
    "name": "Vijayanagar TTMC",
    "lat": 12.9648,
    "lon": 77.5347,
    "is_bus_hub": true,
    "contact": "7760991338",
    "amenities": [
      "Bus bays",
      "Platforms",
      "Seating & lighting",
      "Public conveniences",
      "Information systems",
      "Safety and security",
      "Bengaluru One centers",
      "Other citizen amenity centers",
      "ATMs",
      "Daily needs shopping",
      "Park and Ride facilities"
    ]
  },
  {
    "name": "Domlur TTMC",
    "lat": 12.9625,
    "lon": 77.6382,
    "is_bus_hub": true,
    "contact": "7760991018",
    "amenities": [
      "Bus bays",
      "Platforms",
      "Seating & lighting",
      "Public conveniences",
      "Information systems",
      "Safety and security",
      "Bengaluru One centers",
      "Other citizen amenity centers",
      "ATMs",
      "Daily needs shopping",
      "Park and Ride facilities"
    ]
  },
  {
    "name": "Whitefield TTMC",
    "lat": 12.9770,
    "lon": 77.7259,
    "is_bus_hub": true,
    "contact": null,
    "amenities": [
      "Bus bays",
      "Platforms",
      "Seating & lighting",
      "Public conveniences",
      "Information systems",
      "Safety and security",
      "Bengaluru One centers",
      "Other citizen amenity centers",
      "ATMs",
      "Daily needs shopping",
      "Park and Ride facilities"
    ]
  },
  {
    "name": "Bannerghatta TTMC",
    "lat": 12.8577,
    "lon": 77.5890,
    "is_bus_hub": true,
    "contact": null,
    "amenities": [
      "Bus bays",
      "Platforms",
      "Seating & lighting",
      "Public conveniences",
      "Information systems",
      "Safety and security",
      "Bengaluru One centers",
      "Other citizen amenity centers",
      "ATMs",
      "Daily needs shopping",
      "Park and Ride facilities"
    ]
  },
  {
    "name": "Kempegowda Bus Station (Majestic)",
    "lat": 12.9782,
    "lon": 77.5724,
    "is_bus_hub": true,
    "is_metro_station": true,
    "contact": "7760991057"
  },
  {
    "name": "Shivajinagar Bus Station",
    "lat": 12.9836,
    "lon": 77.6031,
    "is_bus_hub": true,
    "contact": "080-22952324"
  },

  { "name": "UB City Mall", "lat": 12.9716, "lon": 77.5963 },
  { "name": "Phoenix Marketcity (Mahadevapura)", "lat": 12.9967, "lon": 77.6963 },
  { "name": "Orion Mall (Rajajinagar)", "lat": 13.0109, "lon": 77.5548 },
  { "name": "Lulu Mall Bengaluru (Rajajinagar)", "lat": 13.0100, "lon": 77.5540 },
  { "name": "Mantri Square Mall (Malleswaram)", "lat": 12.9910, "lon": 77.5713 },
  { "name": "Forum Mall (Koramangala)", "lat": 12.9346, "lon": 77.6101 },
  { "name": "Nexus Shantiniketan Mall (Whitefield)", "lat": 12.9916, "lon": 77.7270 },
  { "name": "Nexus Mall Koramangala (formerly Forum Koramangala)", "lat": 12.9346, "lon": 77.6101 },
  { "name": "VR Bengaluru (Whitefield)", "lat": 13.0019, "lon": 77.6552 },

  { "name": "Brigade Road (Food & Shopping)", "lat": 12.9719, "lon": 77.6081 },
  { "name": "Church Street (Cafes)", "lat": 12.9751, "lon": 77.6047 },
  { "name": "Commercial Street (Shopping)", "lat": 12.9833, "lon": 77.6086 },
  { "name": "Indiranagar 100 Feet Road (Restaurants)", "lat": 12.9719, "lon": 77.6405 },
  { "name": "Koramangala 5th Block (Restaurants)", "lat": 12.9350, "lon": 77.6160 },
  { "name": "Toit Brewpub (Indiranagar)", "lat": 12.9782, "lon": 77.6409 },
  { "name": "Vidyarthi Bhavan (Basavanagudi)", "lat": 12.9443, "lon": 77.5712 },
  { "name": "MTR (Lalbagh Road)", "lat": 12.9507, "lon": 77.5738 },
  { "name": "Rameshwaram Cafe (Indiranagar)", "lat": 12.9716, "lon": 77.6412 },

  { "name": "Lalbagh Botanical Garden", "lat": 12.9507, "lon": 77.5848 },
  { "name": "Cubbon Park", "lat": 12.9763, "lon": 77.5929 },
  { "name": "Vidhana Soudha", "lat": 12.9794, "lon": 77.5907 },
  { "name": "Bangalore Palace", "lat": 12.9987, "lon": 77.5921 },
  { "name": "ISKCON Temple Bengaluru (Rajajinagar)", "lat": 13.0097, "lon": 77.5511 },
  { "name": "Bannerghatta National Park", "lat": 12.8006, "lon": 77.5770 },
  { "name": "Wonderla Bengaluru", "lat": 12.8340, "lon": 77.4016 },
  { "name": "Manyata Tech Park", "lat": 13.0439, "lon": 77.6219 },
  { "name": "Bagmane Tech Park", "lat": 12.9779, "lon": 77.6590 },
  { "name": "International Tech Park (ITPL), Whitefield", "lat": 12.9885, "lon": 77.7364 },
  { "name": "Ecospace (Bellandur)", "lat": 12.9260, "lon": 77.6866 },
  { "name": "Cubbon Park Metro (Dr. B.R. Ambedkar Station)", "lat": 12.9756, "lon": 77.5956, "is_metro_station": true },
  { "name": "Baiyappanahalli Metro Station", "lat": 12.9903, "lon": 77.6522, "is_metro_station": true },
  { "name": "Namma Metro Nadaprabhu Kempegowda Station (Majestic)", "lat": 12.9758, "lon": 77.5720, "is_metro_station": true },
  { "name": "MG Road Metro Station", "lat": 12.9755, "lon": 77.6068, "is_metro_station": true },
  { "name": "Garuda Mall", "lat": 12.9698, "lon": 77.6111 },
  { "name": "1 MG - Lido Mall", "lat": 12.9718, "lon": 77.6208 }
]

